City_ID,City,Country,Lat,Lng,Max Temp,Humidity,Cloudiness,Wind Speed,Weather
0,Road Town,VG,18.4167,-64.6167,87.89,79,75,11.5,broken clouds
1,Rikitea,PF,-23.1203,-134.9692,69.17,68,95,22.19,overcast clouds
2,Itarema,BR,-2.9248,-39.9167,86.95,56,6,18.68,clear sky
3,Port Alfred,ZA,-33.5906,26.891,67.17,71,100,5.99,overcast clouds
4,Dwarka,IN,22.2394,68.9678,83.19,68,75,11.59,broken clouds
5,Yelan,RU,50.949,43.7378,53.55,56,100,11.9,overcast clouds
6,Mataura,NZ,-46.1927,168.8643,43.48,89,59,3.89,broken clouds
7,Sur,OM,22.5667,59.5289,86.7,53,0,4.74,clear sky
8,Broome,US,42.2506,-75.833,57.36,86,0,4.61,clear sky
9,Polyarnyy,RU,69.1989,33.4478,48.09,82,100,28.3,overcast clouds
10,Karratha,AU,-20.7377,116.8463,76.75,57,10,15.9,clear sky
11,Vaini,TO,-21.2,-175.2,71.76,100,20,3.44,few clouds
12,Natal,BR,-5.795,-35.2094,86.65,62,75,12.66,broken clouds
13,Busselton,AU,-33.65,115.3333,51.12,80,100,6.91,overcast clouds
14,Atuona,PF,-9.8,-139.0333,75.29,81,88,20.51,light rain
15,Grootfontein,NA,-19.5667,18.1167,95.04,8,0,9.46,clear sky
16,Kirakira,SB,-10.4544,161.9205,78.1,86,100,6.62,overcast clouds
17,Qaanaaq,GL,77.484,-69.3632,11.59,79,100,6.08,overcast clouds
18,Lompoc,US,34.6391,-120.4579,60.78,98,100,4.61,fog
19,Deputatskiy,RU,69.3,139.9,8.2,93,37,8.28,scattered clouds
20,Ugoofaaru,MV,5.6667,73.0,81.64,77,93,18.75,overcast clouds
21,Guerrero Negro,MX,27.9769,-114.0611,67.19,90,0,7.14,clear sky
22,Trairi,BR,-3.2778,-39.2689,87.17,52,48,16.37,scattered clouds
23,Hobart,AU,-42.8794,147.3294,55.26,90,75,13.8,broken clouds
24,Cockburn Town,TC,21.4612,-71.1419,82.89,73,99,10.54,overcast clouds
25,Qaqortoq,GL,60.7167,-46.0333,33.73,74,5,4.16,clear sky
26,Ushuaia,AR,-54.8,-68.3,42.46,61,20,5.75,few clouds
27,Codrington,AU,-38.2667,141.9667,53.24,94,100,5.32,overcast clouds
28,Punta Arenas,CL,-53.15,-70.9167,42.91,65,0,12.66,clear sky
29,Butaritari,KI,3.0707,172.7902,81.27,79,10,15.08,light rain
30,Tuktoyaktuk,CA,69.4541,-133.0374,32.29,96,100,11.16,overcast clouds
31,Unai,BR,-16.3575,-46.9061,87.19,41,98,6.98,overcast clouds
32,Innisfail,AU,-17.5333,146.0333,74.5,84,68,7.05,broken clouds
33,Dikson,RU,73.5069,80.5464,32.63,86,100,22.75,overcast clouds
34,Coos Bay,US,43.3665,-124.2179,54.99,100,100,4.61,mist
35,Eureka,US,40.8021,-124.1637,55.2,85,82,1.01,broken clouds
36,Tasiilaq,GL,65.6145,-37.6368,37.56,65,86,4.45,overcast clouds
37,Namibe,AO,-15.1961,12.1522,71.1,68,83,9.89,broken clouds
38,Bambous Virieux,MU,-20.3428,57.7575,74.21,73,40,12.66,scattered clouds
39,Salalah,OM,17.0151,54.0924,82.49,78,40,11.5,scattered clouds
40,Bubaque,GW,11.2833,-15.8333,82.04,68,19,5.55,few clouds
41,Bluff,NZ,-46.6,168.3333,43.81,66,27,10.96,scattered clouds
42,Semenivka,UA,52.1783,32.5818,61.32,61,5,10.6,clear sky
43,Jamestown,US,42.097,-79.2353,58.71,63,100,5.75,overcast clouds
44,Yellowknife,CA,62.456,-114.3525,45.12,81,75,10.36,broken clouds
45,Grand Gaube,MU,-20.0064,57.6608,74.37,62,3,5.99,clear sky
46,Victoria,HK,22.2855,114.1577,85.17,78,21,11.01,few clouds
47,Pangnirtung,CA,66.1451,-65.7125,29.7,94,100,1.63,light snow
48,Airai,TL,-8.9266,125.4092,62.91,91,99,2.48,overcast clouds
49,Georgetown,MY,5.4112,100.3354,82.33,87,40,3.44,thunderstorm with light rain
50,Upernavik,GL,72.7868,-56.1549,21.79,84,100,8.1,overcast clouds
51,Derzhavinsk,KZ,51.1,66.3167,59.27,20,79,7.83,broken clouds
52,Barrow,US,71.2906,-156.7887,35.62,80,100,21.85,light rain
53,Sitka,US,57.0531,-135.33,55.29,94,100,4.61,overcast clouds
54,Port Elizabeth,ZA,-33.918,25.5701,70.11,59,100,18.45,overcast clouds
55,Tambopata,PE,-12.7333,-69.1833,76.89,88,20,4.61,few clouds
56,Mitsamiouli,KM,-11.3847,43.2844,78.39,68,27,5.12,scattered clouds
57,Pisco,PE,-13.7,-76.2167,59.05,88,100,5.75,mist
58,Batemans Bay,AU,-35.7167,150.1833,60.1,96,96,4.7,overcast clouds
59,Ponta Do Sol,PT,32.6667,-17.1,79.72,68,29,2.26,scattered clouds
60,Lata,PT,40.1629,-8.3327,86.07,23,100,1.21,overcast clouds
61,Hirara,JP,24.8,125.2833,82.04,73,85,15.7,overcast clouds
62,Hilo,US,19.7297,-155.09,79.29,94,100,4.61,overcast clouds
63,Shizunai,JP,42.3339,142.3669,46.9,69,98,9.31,overcast clouds
64,Prado,BR,-17.3411,-39.2208,80.2,63,96,8.34,overcast clouds
65,North Adams,US,42.7009,-73.1087,63.21,70,100,0.0,overcast clouds
66,Arraial Do Cabo,BR,-22.9661,-42.0278,76.86,69,40,14.97,scattered clouds
67,Fare,PF,-16.7,-151.0167,77.49,75,5,26.19,clear sky
68,Lebu,CL,-37.6167,-73.65,50.94,96,100,12.88,overcast clouds
69,Carnarvon,AU,-24.8667,113.6333,65.66,60,6,27.89,clear sky
70,Esperance,AU,-33.8667,121.9,51.64,69,100,16.89,overcast clouds
71,Puerto Ayora,EC,-0.7393,-90.3518,64.54,98,98,4.0,overcast clouds
72,Mugumu,TZ,-1.85,34.7,80.44,31,96,5.84,overcast clouds
73,Saint-Philippe,RE,-21.3585,55.7679,74.79,79,16,11.79,few clouds
74,Alekseyevka,RU,50.6309,38.6903,59.52,59,91,11.41,overcast clouds
75,Kawalu,ID,-7.3817,108.2082,72.52,99,100,1.5,overcast clouds
76,Port Blair,IN,11.6667,92.75,81.45,77,100,7.72,overcast clouds
77,Mar Del Plata,AR,-38.0023,-57.5575,62.62,77,100,3.44,overcast clouds
78,Albany,US,42.6001,-73.9662,54.3,98,11,2.66,few clouds
79,Duluth,US,46.7833,-92.1066,47.05,77,100,19.57,overcast clouds
80,New Norfolk,AU,-42.7826,147.0587,56.7,77,100,1.99,overcast clouds
81,Hermanus,ZA,-34.4187,19.2345,68.81,64,99,19.73,overcast clouds
82,Boffa,GN,10.1667,-14.0333,89.51,68,35,3.94,light rain
83,Dunedin,NZ,-45.8742,170.5036,41.32,81,92,17.07,overcast clouds
84,Sao Filipe,CV,14.8961,-24.4956,80.62,80,13,12.48,few clouds
85,Cabedelo,BR,-6.9811,-34.8339,84.87,72,25,11.25,scattered clouds
86,Torbay,CA,47.6666,-52.7314,54.39,89,75,11.5,broken clouds
87,Ambon,ID,-3.6954,128.1814,78.94,89,20,8.05,few clouds
88,Maragogi,BR,-9.0122,-35.2225,82.26,66,35,9.28,scattered clouds
89,Clyde River,CA,70.4692,-68.5914,21.43,86,100,6.91,overcast clouds
90,Mwinilunga,ZM,-11.7358,24.4293,93.76,9,11,7.78,few clouds
91,Whitianga,NZ,-36.8333,175.7,40.6,68,0,5.77,clear sky
92,Ketchikan,US,55.3422,-131.6461,52.27,100,100,4.61,mist
93,Thinadhoo,MV,0.5333,72.9333,82.33,77,88,21.27,overcast clouds
94,Mount Isa,AU,-20.7333,139.5,82.17,51,100,0.0,light rain
95,Malanje,AO,-9.5402,16.341,84.25,40,96,6.04,overcast clouds
96,Te Anau,NZ,-45.4167,167.7167,30.92,93,23,1.68,few clouds
97,Tommot,RU,58.9564,126.2925,29.71,96,100,9.86,light snow
98,General Salgado,BR,-20.6483,-50.3606,87.37,42,48,13.09,scattered clouds
99,Jasrana,IN,27.25,78.6833,73.08,89,100,11.18,overcast clouds
100,Ribeira Grande,PT,38.5167,-28.7,75.6,83,20,8.05,few clouds
101,Espanola,US,35.9911,-106.0806,53.6,78,74,2.44,broken clouds
102,Angahuan,MX,19.55,-102.1833,45.19,96,100,3.49,overcast clouds
103,Costa Rica,BR,-23.4167,-54.65,76.82,81,100,13.0,moderate rain
104,Haines Junction,CA,60.7522,-137.5108,24.75,86,5,2.3,clear sky
105,Avarua,CK,-21.2078,-159.775,73.45,78,40,12.66,scattered clouds
106,Severo-Kurilsk,RU,50.6789,156.125,42.01,83,90,11.12,light rain
107,Argostolion,GR,38.1811,20.489,77.07,41,20,10.36,few clouds
108,Bredasdorp,ZA,-34.5322,20.0403,71.47,41,100,19.51,overcast clouds
109,Kupang,ID,-10.1667,123.5833,81.1,78,98,12.55,overcast clouds
110,Cape Town,ZA,-33.9258,18.4232,68.11,62,40,19.57,scattered clouds
111,Hasaki,JP,35.7333,140.8333,55.8,80,100,19.13,overcast clouds
112,Solnechnyy,RU,50.7214,136.6319,32.34,55,4,8.12,clear sky
113,Simpang,ID,-1.2667,104.0833,75.04,92,100,0.34,overcast clouds
114,Beira,MZ,-19.8436,34.8389,84.29,70,20,17.27,few clouds
115,Provideniya,RU,64.3833,-173.3,40.01,73,7,28.57,clear sky
116,Marsh Harbour,BS,26.5412,-77.0636,78.64,65,9,13.53,clear sky
117,Babol,IR,36.5513,52.679,78.87,73,0,0.0,clear sky
118,Kiama,AU,-34.6833,150.8667,62.01,94,24,3.0,light rain
119,Anadyr,RU,64.75,177.4833,36.1,69,0,20.13,clear sky
120,Vilhena,BR,-12.7406,-60.1458,78.93,66,95,3.83,overcast clouds
121,Aracati,BR,-4.5617,-37.7697,89.22,46,36,15.41,scattered clouds
122,Bakel,SN,14.905,-12.4568,96.13,40,6,4.5,clear sky
123,Rawson,AR,-43.3002,-65.1023,55.45,35,0,27.83,clear sky
124,Bacolod,PH,10.6667,122.95,79.86,84,97,7.47,overcast clouds
125,Kapaa,US,22.0752,-159.319,71.58,88,0,8.05,clear sky
126,Sao Joao Da Barra,BR,-21.6403,-41.0511,77.09,79,100,11.14,overcast clouds
127,Tiksi,RU,71.6872,128.8694,21.4,88,100,22.68,overcast clouds
128,Saint George,US,37.1041,-113.5841,63.19,42,0,3.44,clear sky
129,Bowen,AU,-20.0167,148.2333,74.16,82,27,17.74,scattered clouds
130,Quedlinburg,DE,51.7833,11.15,64.29,42,5,10.63,clear sky
131,Colares,PT,38.7992,-9.4469,80.26,73,0,5.99,clear sky
132,Kavieng,PG,-2.5744,150.7967,82.51,77,100,14.81,light rain
133,Mandalgovi,MN,45.7625,106.2708,38.84,24,98,6.89,overcast clouds
134,Vardo,NO,70.3705,31.1107,46.38,93,75,33.38,light rain
135,Labuhan,ID,-6.8844,112.2051,81.34,78,100,4.92,overcast clouds
136,Praia Da Vitoria,PT,38.7333,-27.0667,72.75,88,75,12.5,broken clouds
137,Cidreira,BR,-30.1811,-50.2056,62.83,96,100,18.19,light rain
138,Zilair,RU,52.2332,57.4392,49.75,41,100,10.36,light rain
139,Nileshwar,IN,12.25,75.1,79.02,82,100,9.08,overcast clouds
140,Cabo San Lucas,MX,22.8909,-109.9124,81.52,63,0,6.91,clear sky
141,Yining,CN,29.0361,114.5636,55.4,90,100,3.22,overcast clouds
142,Kahului,US,20.8947,-156.47,77.02,78,75,6.91,broken clouds
143,Vila Velha,BR,-20.3297,-40.2925,78.75,78,100,6.91,overcast clouds
144,Bambanglipuro,ID,-7.95,110.2833,77.36,88,100,9.17,light rain
145,Grindavik,IS,63.8424,-22.4338,45.07,70,40,12.66,scattered clouds
146,Waiouru,NZ,-39.4833,175.6667,26.04,82,4,5.55,clear sky
147,Chokurdakh,RU,70.6333,147.9167,22.73,95,98,13.4,light snow
148,Meulaboh,ID,4.1363,96.1285,77.02,86,100,1.63,moderate rain
149,Hithadhoo,MV,-0.6,73.0833,81.99,76,4,20.38,heavy intensity rain
150,Kijang,KR,35.2442,129.2139,64.13,75,100,3.65,light rain
151,Chuy,UY,-33.6971,-53.4616,61.2,86,100,12.68,heavy intensity rain
152,Houma,US,29.5958,-90.7195,68.0,93,0,0.0,clear sky
153,Lewistown,US,40.5992,-77.5714,60.35,69,7,2.68,clear sky
154,Isiolo,KE,0.3546,37.5822,86.29,32,100,17.09,overcast clouds
155,Aswan,EG,24.0934,32.907,105.1,11,0,5.75,clear sky
156,Kamaishi,JP,39.2667,141.8833,49.59,81,6,5.17,clear sky
157,Samarai,PG,-10.6167,150.6667,80.74,84,64,10.42,broken clouds
158,Kyabe,TD,9.4515,18.9449,85.73,65,41,4.16,light rain
159,Prince Rupert,CA,54.3161,-130.3201,51.49,100,20,3.44,mist
160,Jammalamadugu,IN,14.8333,78.4,74.88,90,100,6.02,light rain
161,Khatanga,RU,71.9667,102.5,14.27,95,100,10.76,overcast clouds
162,Bandarbeyla,SO,9.4942,50.8122,80.29,73,97,25.95,overcast clouds
163,Rio Grande,BR,-32.035,-52.0986,66.31,97,100,15.95,moderate rain
164,Nemuro,JP,43.3236,145.575,50.38,71,80,14.5,broken clouds
165,Hovd,MN,48.0056,91.6419,46.31,27,100,3.89,overcast clouds
166,Bethel,US,41.3712,-73.414,60.49,88,0,4.61,clear sky
167,Ayan,RU,56.45,138.1667,35.69,59,100,12.1,overcast clouds
168,Saint-Joseph,RE,-21.3667,55.6167,73.78,78,33,9.78,scattered clouds
169,Stralsund,DE,54.3091,13.0818,66.02,57,1,21.14,clear sky
170,Nikolskoye,RU,59.7035,30.7861,55.29,81,100,13.4,overcast clouds
171,Kodiak,US,57.79,-152.4072,51.31,93,100,6.91,overcast clouds
172,Tabat,ID,-2.635,115.2274,75.97,89,100,1.05,overcast clouds
173,Sibu,MY,2.3,111.8167,77.31,100,40,0.0,scattered clouds
174,Zalesovo,RU,53.9939,84.7431,42.42,64,100,4.43,overcast clouds
175,East London,ZA,-33.0153,27.9116,68.94,64,20,18.41,few clouds
176,Belmonte,BR,-15.8631,-38.8828,79.09,71,100,5.14,overcast clouds
177,Eidsvag,NO,62.7767,8.0668,52.45,67,100,6.53,light rain
178,Ust-Tsilma,RU,65.441,52.1498,42.67,93,100,4.25,overcast clouds
179,Thompson,CA,55.7435,-97.8558,28.56,69,100,3.44,overcast clouds
180,Camajuani,CU,22.4833,-79.75,77.14,83,40,2.3,scattered clouds
181,San Cristobal,VE,7.7669,-72.225,69.98,86,100,2.77,overcast clouds
182,Tuatapere,NZ,-46.1333,167.6833,39.16,77,68,5.01,broken clouds
183,Guiratinga,BR,-16.3494,-53.7583,88.21,44,9,7.94,clear sky
184,Suhbaatar,MN,50.2314,106.2078,33.69,59,73,4.09,broken clouds
185,Ginda,IN,30.6945,78.4932,60.13,96,9,0.67,clear sky
186,Chhuikhadan,IN,21.5333,80.9833,77.09,85,99,9.13,heavy intensity rain
187,Moroni,KM,-11.7022,43.2551,76.87,76,89,4.32,overcast clouds
188,Chapais,CA,49.7834,-74.8492,46.18,90,100,6.91,overcast clouds
189,Santa Cruz,BO,-17.8,-63.1667,82.45,69,75,12.66,broken clouds
190,Verkhnyaya Inta,RU,65.9811,60.3094,41.38,89,100,4.72,overcast clouds
191,Kalabo,ZM,-14.97,22.6814,102.22,7,16,4.0,few clouds
192,Geraldton,AU,-28.7667,114.6,50.41,76,0,4.61,clear sky
193,Jutai,BR,-5.1833,-68.9,84.11,68,70,2.06,broken clouds
194,The Valley,AI,18.217,-63.0578,86.83,74,40,14.97,scattered clouds
195,Mount Darwin,ZW,-16.7725,31.5838,92.89,12,0,12.08,clear sky
196,Hokitika,NZ,-42.7167,170.9667,38.98,69,7,7.52,clear sky
197,Batagay,RU,67.6333,134.6333,13.32,97,98,3.33,overcast clouds
198,Vila Franca Do Campo,PT,37.7167,-25.4333,76.19,79,83,10.04,broken clouds
199,Saldanha,ZA,-33.0117,17.9442,63.59,66,6,13.13,clear sky
200,Saskylakh,RU,71.9167,114.0833,13.82,91,100,10.22,overcast clouds
201,Salinopolis,BR,-0.6136,-47.3561,84.52,66,94,15.73,overcast clouds
202,Lumberton,US,34.6182,-79.0086,67.35,82,0,0.0,clear sky
203,General Pico,AR,-35.6566,-63.7568,64.6,52,77,9.31,broken clouds
204,Laibin,CN,23.7,109.2667,83.73,60,98,3.44,overcast clouds
205,Asadabad,IR,34.7824,48.1185,82.35,10,0,1.32,clear sky
206,Ostrowiec Swietokrzyski,PL,50.9294,21.3853,67.08,56,74,12.93,broken clouds
207,Ajdabiya,LY,30.7554,20.2263,81.68,36,0,11.74,clear sky
208,Mahebourg,MU,-20.4081,57.7,74.25,73,40,12.66,scattered clouds
209,Iqaluit,CA,63.7506,-68.5145,26.33,79,100,13.8,overcast clouds
210,Chumikan,RU,54.7183,135.315,35.01,56,23,20.09,few clouds
211,Broken Hill,AU,-31.95,141.4333,70.99,36,97,2.84,overcast clouds
212,Tevaitoa,PF,-16.7833,-151.5,77.65,75,0,26.22,clear sky
213,New Haven,US,41.4001,-72.9329,61.09,89,75,4.61,broken clouds
214,Nelson Bay,AU,-32.7167,152.15,64.0,91,49,8.99,scattered clouds
215,Hervey Bay,AU,-25.2986,152.8535,64.02,82,0,8.01,clear sky
216,Eyl,SO,7.9803,49.8164,83.91,64,55,21.56,broken clouds
217,Kamen-Rybolov,RU,44.7481,132.0403,40.42,50,55,8.5,broken clouds
218,Castro,BR,-24.7911,-50.0119,70.61,69,100,11.9,light rain
219,Atar,MR,20.5169,-13.0499,101.52,12,60,13.73,broken clouds
220,Port Hardy,CA,50.6996,-127.4199,53.78,100,100,2.3,mist
221,Beyneu,KZ,45.3167,55.2,72.88,10,99,9.17,overcast clouds
222,Port Macquarie,AU,-31.4333,152.9167,59.9,93,77,6.13,broken clouds
223,Kaitangata,NZ,-46.2817,169.8464,39.47,83,93,9.75,overcast clouds
224,Ruteng,ID,-8.6136,120.4721,63.99,93,100,0.65,overcast clouds
225,Ortona,IT,42.3496,14.4039,77.18,50,100,6.04,overcast clouds
226,Gboko,NG,7.3179,8.9951,79.79,75,100,1.95,light rain
227,Umm Kaddadah,SD,13.6017,26.6876,96.12,25,100,6.8,overcast clouds
228,Nabire,ID,-3.3667,135.4833,76.73,91,100,5.84,overcast clouds
229,Rocha,UY,-34.4833,-54.3333,61.48,82,100,5.39,light rain
230,Emba,KZ,48.8264,58.1442,64.71,13,100,12.84,overcast clouds
231,Pundaguitan,PH,6.3711,126.1689,83.8,71,26,7.96,scattered clouds
232,Boyolangu,ID,-8.1181,111.8935,75.65,92,99,1.68,light rain
233,Lipany,SK,49.1538,20.9638,68.74,50,91,1.25,overcast clouds
234,Luhyny,UA,51.082,28.4006,63.54,61,65,11.21,broken clouds
235,Ovsyanka,RU,55.9575,92.5519,36.57,98,100,3.44,light rain
236,Xinxiang,CN,35.3089,113.8672,52.88,73,100,5.37,overcast clouds
237,Zhongshan,CN,21.3226,110.5829,80.1,82,7,13.73,clear sky
238,Poum,NC,-20.2333,164.0167,75.7,67,100,22.28,overcast clouds
239,Atasu,KZ,48.6814,71.6433,58.87,42,91,4.72,overcast clouds
240,Askino,RU,56.0901,56.5783,47.19,69,100,13.76,overcast clouds
241,Tocopilla,CL,-22.092,-70.1979,66.45,57,0,3.65,clear sky
242,Komsomolskiy,UZ,40.4272,71.7189,68.72,28,0,2.3,clear sky
243,Tautira,PF,-17.7333,-149.15,76.5,74,94,22.35,overcast clouds
244,Tezu,IN,27.9167,96.1667,73.13,98,98,3.42,overcast clouds
245,Virginia Beach,US,36.8529,-75.978,66.04,82,40,4.61,scattered clouds
246,Fortuna,US,40.5982,-124.1573,54.93,88,60,0.74,broken clouds
247,Bathsheba,BB,13.2167,-59.5167,86.61,74,40,19.57,scattered clouds
248,Parfino,RU,57.9731,31.6481,59.41,68,11,13.47,few clouds
249,Gohad,IN,26.4261,78.4447,76.95,85,86,12.35,overcast clouds
250,Port-Gentil,GA,-0.7193,8.7815,85.96,66,75,18.41,broken clouds
251,Sungaipenuh,ID,-2.0833,101.3833,63.64,99,100,2.68,overcast clouds
252,Petropavlovsk-Kamchatskiy,RU,53.0452,158.6483,36.19,87,75,4.47,light intensity shower rain
253,Forestville,US,38.8451,-76.875,62.67,80,0,8.05,clear sky
254,Flin Flon,CA,54.7682,-101.865,30.04,64,100,2.3,overcast clouds
255,Nantucket,US,41.2835,-70.0995,62.74,98,100,13.8,mist
256,Coquimbo,CL,-29.9533,-71.3436,60.53,58,0,2.3,clear sky
257,Bengkulu,ID,-3.8004,102.2655,74.08,95,100,12.28,heavy intensity rain
258,Prieska,ZA,-29.6641,22.7474,88.75,4,11,16.11,few clouds
259,Awbari,LY,26.5921,12.7805,84.6,28,0,11.63,clear sky
260,Phayao,TH,19.25,100.25,72.27,96,82,2.37,broken clouds
261,Vostok,RU,46.4856,135.8833,27.57,67,7,5.73,clear sky
262,Aykhal,RU,66.0,111.5,7.75,100,85,4.05,overcast clouds
263,Ostrovnoy,RU,68.0531,39.5131,46.89,82,100,32.21,light rain
264,Katsuura,JP,35.1333,140.3,60.71,86,100,18.5,light rain
265,Wanxian,CN,30.8039,108.3897,55.56,94,100,5.39,overcast clouds
266,Tomatlan,MX,19.9333,-105.25,70.72,92,39,3.15,scattered clouds
267,Wajima,JP,37.4,136.9,61.84,68,66,16.6,broken clouds
268,Los Llanos De Aridane,ES,28.6585,-17.9182,71.35,94,75,16.11,broken clouds
269,Mmabatho,ZA,-25.85,25.6333,93.16,16,0,9.22,clear sky
270,Erenhot,CN,43.6475,111.9767,47.98,19,0,7.94,clear sky
271,Batsfjord,NO,70.6345,29.7185,46.33,93,75,31.07,light rain
272,Ixtapa,MX,20.7,-105.2,74.43,94,75,4.61,broken clouds
273,Gejiu,CN,23.306,103.1635,55.42,95,13,3.76,few clouds
274,Touros,BR,-5.1989,-35.4608,85.06,60,0,13.58,clear sky
275,Robertsport,LR,6.7533,-11.3686,79.65,79,100,6.49,light rain
276,Mount Gambier,AU,-37.8333,140.7667,51.1,97,100,5.3,overcast clouds
277,Saint Anthony,US,45.0205,-93.218,53.65,80,0,13.8,clear sky
278,Anito,PH,12.4497,125.2886,79.47,87,100,5.12,overcast clouds
279,Raglan,NZ,-37.8,174.8833,37.44,56,2,1.63,clear sky
280,Gushikawa,JP,26.3544,127.8686,79.83,83,0,4.61,clear sky
281,Moussoro,TD,13.6408,16.4901,101.62,13,14,9.42,few clouds
282,Alofi,NU,-19.0595,-169.9187,71.49,94,99,5.75,overcast clouds
283,Port Hedland,AU,-20.3167,118.5667,73.45,83,12,8.05,few clouds
284,Kabinda,CD,-6.1333,24.4833,84.76,49,100,2.01,overcast clouds
285,Belyy Yar,RU,53.6039,91.3903,36.86,86,100,4.47,light rain
286,Kiunga,PG,-6.1219,141.2906,74.89,99,100,3.53,heavy intensity rain
287,Grand Baie,MU,-20.0182,57.5802,74.44,62,3,5.99,clear sky
288,Waingapu,ID,-9.6567,120.2641,81.59,78,100,9.01,overcast clouds
289,San Patricio,US,28.017,-97.5169,75.06,77,3,6.38,clear sky
290,Tungao,PH,8.7772,125.5719,74.34,96,95,1.7,overcast clouds
291,Quatre Cocos,MU,-20.2078,57.7625,74.08,68,32,15.1,scattered clouds
292,Mayaky,UA,47.4408,29.5599,70.63,24,83,6.87,broken clouds
293,Poronaysk,RU,49.2167,143.1167,35.65,75,21,8.37,few clouds
294,Havelock,US,34.8791,-76.9013,67.95,87,0,0.0,clear sky
295,Moyale,KE,3.5167,39.0584,77.32,49,100,11.52,overcast clouds
296,Sanmenxia,CN,34.7747,111.1814,48.97,88,100,2.26,overcast clouds
297,Pitimbu,BR,-7.4706,-34.8086,84.79,70,31,10.65,scattered clouds
298,Brae,GB,60.3964,-1.353,51.3,79,2,33.62,light rain
299,Port Antonio,JM,18.18,-76.4612,84.99,76,55,3.76,broken clouds
300,Juneau,US,58.3019,-134.4197,55.09,100,100,4.61,mist
301,Manggar,ID,-2.8833,108.2667,80.51,79,100,5.01,overcast clouds
302,Osi,HU,47.1472,18.1883,65.86,49,100,6.35,overcast clouds
303,Yerbogachen,RU,61.2767,108.0108,29.95,98,98,3.13,overcast clouds
304,Tabuk,PH,17.4189,121.4443,75.58,90,69,2.53,broken clouds
305,Hambantota,LK,6.1241,81.1185,81.75,72,100,21.68,overcast clouds
306,Hanzhong,CN,33.0728,107.0303,50.9,95,100,1.88,overcast clouds
307,Marawi,PH,7.9986,124.2928,71.13,94,100,0.96,moderate rain
308,Winburg,ZA,-28.518,27.0093,91.54,11,100,20.71,overcast clouds
309,Kenai,US,60.5544,-151.2583,46.15,96,100,3.44,mist
310,Naifaru,MV,5.4444,73.3657,81.72,77,98,18.43,overcast clouds
311,Petrozavodsk,RU,61.7849,34.3469,53.06,87,100,13.42,overcast clouds
312,Kodinsk,RU,58.6881,99.1844,28.62,93,82,2.77,broken clouds
313,Muros,ES,42.7762,-9.0603,77.09,64,4,6.73,clear sky
314,Eydhafushi,MV,5.1033,73.0708,81.63,76,98,18.63,overcast clouds
315,Talakan,RU,50.3167,130.3667,30.7,60,32,2.98,scattered clouds
316,Mezdra,BG,43.15,23.7,67.01,33,100,2.98,overcast clouds
317,Dingle,PH,10.9995,122.6711,77.56,89,100,6.4,overcast clouds
318,Camacha,PT,33.0833,-16.3333,72.82,64,20,16.11,few clouds
319,Auki,SB,-8.7676,160.7034,76.8,88,75,4.14,broken clouds
320,Pandavapura,IN,12.5006,76.6733,75.47,74,100,8.63,overcast clouds
321,Gizo,SB,-8.103,156.8419,82.09,68,100,7.2,overcast clouds
322,Miastko,PL,54.0028,16.9826,61.9,51,0,14.94,clear sky
323,Pevek,RU,69.7008,170.3133,31.66,99,100,18.1,light snow
324,Chico,US,39.7285,-121.8375,69.67,72,0,0.0,clear sky
325,Taltal,CL,-25.4,-70.4833,66.56,44,0,4.09,clear sky
326,Fairbanks,US,64.8378,-147.7164,39.6,87,100,3.44,overcast clouds
327,Imbituba,BR,-28.24,-48.6703,68.86,93,100,10.45,moderate rain
328,Fereydun Kenar,IR,36.6864,52.5225,79.02,73,0,0.0,clear sky
329,Cherskiy,RU,68.75,161.3,26.11,94,100,27.49,light snow
330,Duldurga,RU,50.6761,113.5931,28.69,53,28,1.01,scattered clouds
331,Matagami,CA,49.7502,-77.6328,41.11,93,100,5.75,mist
332,Port Lincoln,AU,-34.7333,135.8667,55.96,84,0,14.32,clear sky
333,Mocajuba,BR,-2.5842,-49.5072,89.71,49,18,5.86,few clouds
334,San Rafael,AR,-34.6177,-68.3301,68.09,19,31,11.95,scattered clouds
335,Luderitz,NA,-26.6481,15.1594,71.02,46,1,32.5,clear sky
336,Mamou,GN,10.5,-12.0,82.42,61,98,3.71,overcast clouds
337,Taperoa,BR,-7.2075,-36.8267,84.24,46,8,14.27,clear sky
338,Clinton,US,42.587,-82.9199,62.2,69,100,1.01,overcast clouds
339,Trinidad,BO,-14.8333,-64.9,85.98,66,40,11.5,scattered clouds
340,Mehtar Lam,AF,34.6714,70.2094,77.22,13,0,2.28,clear sky
341,Tupiza,BO,-21.45,-65.7167,58.1,3,0,23.4,clear sky
342,Parana,AR,-31.732,-60.5238,60.55,84,100,12.53,moderate rain
343,Murashi,RU,59.3999,48.9615,45.0,95,99,3.04,overcast clouds
344,Phan Thiet,VN,10.9333,108.1,79.54,85,100,5.19,overcast clouds
345,Garowe,SO,8.4054,48.4845,90.66,33,92,14.03,overcast clouds
346,Beringovskiy,RU,63.05,179.3167,39.58,71,7,33.91,clear sky
347,Soyo,AO,-6.1349,12.3689,79.72,71,50,10.13,scattered clouds
348,Timra,SE,62.487,17.3257,57.67,62,0,9.22,clear sky
349,Asosa,ET,10.0667,34.5333,67.41,87,97,2.39,light rain
350,Kudat,MY,6.8837,116.8477,78.73,94,40,2.3,scattered clouds
351,Jacareacanga,BR,-6.2222,-57.7528,94.28,35,99,3.62,overcast clouds
352,Shemonaikha,KZ,50.6328,81.9056,46.94,66,80,2.44,broken clouds
353,La Ronge,CA,55.1001,-105.2842,28.65,86,20,5.75,few clouds
354,Hofn,IS,64.2539,-15.2082,48.22,49,20,19.57,few clouds
355,Kangaatsiaq,GL,68.3065,-53.4641,29.71,81,100,4.97,overcast clouds
356,Santa Fe,AR,-31.6333,-60.7,60.03,83,100,4.0,moderate rain
357,Bahawalpur,PK,29.4,71.6833,90.99,16,0,5.88,clear sky
358,Masvingo,ZW,-20.0637,30.8277,93.25,17,0,13.8,haze
359,Sibolga,ID,1.7427,98.7792,76.41,88,100,2.21,overcast clouds
360,Gudari,IN,19.35,83.7833,76.14,96,95,3.29,overcast clouds
361,Upanema,BR,-5.6419,-37.2578,92.03,37,12,14.63,few clouds
362,Bereda,ES,43.2686,-7.5406,72.41,77,48,6.11,scattered clouds
363,Sovetskoye,RU,52.2861,85.4131,40.37,95,100,3.27,overcast clouds
364,Zeya,RU,53.75,127.2667,30.38,71,100,3.98,overcast clouds
365,Angoche,MZ,-16.2325,39.9086,81.5,64,0,12.1,clear sky
366,Boden,SE,65.8252,21.6886,53.6,64,37,15.28,scattered clouds
367,Pemangkat,ID,1.1667,108.9667,79.25,83,100,2.93,moderate rain
368,Caravelas,BR,-17.7125,-39.2481,82.2,57,92,7.49,overcast clouds
369,Ancud,CL,-41.8697,-73.8203,47.3,73,100,3.78,overcast clouds
370,Saint-Francois,FR,46.4154,3.9054,65.64,68,75,5.75,broken clouds
371,Oxkutzcab,MX,20.3,-89.4167,69.96,74,9,2.33,clear sky
372,Zyryanka,RU,65.75,150.85,22.68,88,100,22.41,overcast clouds
373,Sao Miguel Do Araguaia,BR,-13.275,-50.1628,98.6,25,39,8.1,scattered clouds
374,Nishihara,JP,26.1842,127.7558,79.88,78,20,10.36,few clouds
375,Talara,PE,-4.5772,-81.2719,63.36,82,40,21.85,scattered clouds
376,Faanui,PF,-16.4833,-151.75,77.68,75,21,25.93,few clouds
377,Vytegra,RU,61.0064,36.4481,49.95,90,100,14.2,overcast clouds
378,Naze,JP,28.3667,129.4833,74.32,75,21,6.42,few clouds
379,Paamiut,GL,61.994,-49.6678,35.76,78,96,5.97,overcast clouds
380,Barabai,ID,-2.5833,115.3833,76.17,91,100,1.03,overcast clouds
381,Ushtobe,KZ,45.2514,77.9838,59.88,18,0,11.72,clear sky
382,Emerald,AU,-23.5333,148.1667,69.35,76,2,17.58,clear sky
383,Wyndham,US,37.6985,-77.6125,62.76,89,0,3.44,clear sky
384,Verkhnevilyuysk,RU,63.4453,120.3167,21.51,85,34,7.29,scattered clouds
385,Ola,RU,59.5833,151.2833,23.94,66,16,7.02,few clouds
386,Kruisfontein,ZA,-34.0033,24.7314,67.89,46,100,20.36,overcast clouds
387,Dawlatabad,AF,36.4141,64.9053,69.22,10,0,7.58,clear sky
388,Lazaro Cardenas,MX,17.9583,-102.2,75.87,86,92,5.48,overcast clouds
389,Palmer,US,42.1584,-72.3287,60.17,89,40,0.0,scattered clouds
390,Pacific Grove,US,36.6177,-121.9166,57.02,98,100,4.61,mist
391,Zhuanghe,CN,39.7008,122.9911,48.69,51,0,5.79,clear sky
392,Vestmannaeyjar,IS,63.4427,-20.2734,45.59,70,0,11.5,clear sky
393,Kailua,US,21.4022,-157.7394,75.18,85,100,6.91,heavy intensity rain
394,Longyearbyen,SJ,78.2186,15.6401,40.84,70,75,5.75,broken clouds
395,Itaituba,BR,-4.2761,-55.9836,87.96,74,20,9.22,few clouds
396,Sorong,ID,-0.8833,131.25,81.41,78,100,3.4,light rain
397,Kabalo,CD,-6.05,26.9167,91.24,36,100,4.07,overcast clouds
398,Kihei,US,20.785,-156.4656,77.02,92,75,6.91,broken clouds
399,Neiafu,TO,-18.65,-173.9833,77.68,83,75,2.3,broken clouds
400,Panalingaan,PH,8.7842,117.4231,80.19,85,100,2.37,moderate rain
401,Outjo,NA,-20.1167,16.15,98.85,7,8,8.55,clear sky
402,Sabla,NG,12.7525,4.7077,96.24,33,20,6.55,few clouds
403,Naberera,TZ,-4.2,36.9333,81.09,30,20,13.4,few clouds
404,Volokolamsk,RU,56.0336,35.9694,54.97,80,61,10.16,broken clouds
405,College,US,64.8569,-147.8028,39.58,87,75,3.44,broken clouds
406,Siedlce,PL,52.1677,22.2901,66.25,60,88,16.42,overcast clouds
407,Lagoa,PT,39.05,-27.9833,69.87,85,56,8.34,light rain
408,Pucallpa,PE,-8.3791,-74.5539,82.44,78,40,3.44,scattered clouds
409,Kilindoni,TZ,-7.9139,39.6668,78.49,66,60,16.55,broken clouds
410,Ternate,ID,0.8,127.4,82.42,77,100,3.13,overcast clouds
411,Morgan City,US,29.6994,-91.2068,66.2,94,0,0.0,mist
412,Cap Malheureux,MU,-19.9842,57.6142,74.46,61,2,11.99,clear sky
413,Zhangye,CN,38.9342,100.4517,53.15,30,100,1.14,overcast clouds
414,Pilar,BR,-9.5972,-35.9567,84.13,54,48,9.6,scattered clouds
415,Sao Miguel,BR,-5.4667,-35.3667,86.77,62,1,14.5,clear sky
416,Mariental,NA,-24.6333,17.9667,93.88,6,0,5.59,clear sky
417,Soloneshnoye,RU,51.6544,84.3197,45.36,80,99,2.51,overcast clouds
418,Narsaq,GL,60.9167,-46.05,35.82,70,2,5.7,clear sky
419,Walvis Bay,NA,-22.9575,14.5053,68.95,52,0,5.75,clear sky
420,Ulaangom,MN,49.9811,92.0667,39.65,80,100,8.72,overcast clouds
421,Bonthe,SL,7.5264,-12.505,80.1,79,97,4.63,moderate rain
422,Xixiang,CN,35.1628,112.865,53.62,80,100,3.62,overcast clouds
423,Gamba,GA,-2.65,10.0,80.49,75,39,12.37,scattered clouds
424,Faya,SA,18.3851,42.4509,78.91,31,98,5.99,overcast clouds
425,Gorontalo,ID,0.5412,123.0595,76.1,95,37,2.57,scattered clouds
426,Makakilo City,US,21.3469,-158.0858,73.72,84,0,6.91,clear sky
427,Yulara,AU,-25.2406,130.9889,68.81,51,5,20.29,clear sky
428,Blackwater,AU,-23.5833,148.8833,68.77,73,100,15.99,overcast clouds
429,Pochutla,MX,15.7432,-96.4661,73.22,79,59,4.54,broken clouds
430,Maningrida,AU,-12.0667,134.2667,82.53,78,4,10.0,clear sky
431,Moindou,NC,-21.6924,165.677,72.37,67,98,5.53,overcast clouds
432,Pervoye Maya,RU,56.164,44.7196,49.15,71,81,8.57,broken clouds
433,Digha,IN,21.6833,87.55,81.09,84,20,8.12,few clouds
434,Svetlyy,RU,54.675,20.1347,60.85,71,0,22.28,clear sky
435,Viedma,AR,-40.8135,-62.9967,63.82,34,0,20.33,clear sky
436,Shimoda,JP,34.6667,138.95,54.1,86,100,18.1,light rain
437,Samarina,RU,57.8878,27.8054,57.09,78,100,18.54,overcast clouds
438,Tiarei,PF,-17.5333,-149.3333,73.42,75,18,24.65,few clouds
439,Port-Cartier,CA,50.0334,-66.8654,50.76,84,91,2.77,overcast clouds
440,Zhengjiatun,CN,43.5064,123.5064,40.57,36,0,4.97,clear sky
441,Vanimo,PG,-2.6741,141.3028,79.43,88,100,5.59,light rain
442,Sioux Lookout,CA,50.1001,-91.917,32.07,100,100,11.5,mist
443,Sliema,MT,35.9125,14.5019,75.96,60,20,10.36,few clouds
444,Hamilton,US,39.1834,-84.5333,58.6,79,75,3.44,broken clouds
445,Misratah,LY,32.3754,15.0925,76.5,52,0,13.33,clear sky
446,Myitkyina,MM,25.3833,97.4,73.24,97,26,2.33,scattered clouds
447,Toucheng,TW,24.8592,121.8233,80.46,91,97,5.64,overcast clouds
448,Mashhad,IR,36.297,59.6062,75.34,19,0,9.22,clear sky
449,Greenwood,US,34.1668,-82.1165,59.63,77,0,3.44,clear sky
450,Biltine,TD,14.5333,20.9167,100.35,14,70,8.77,broken clouds
451,Sao Jose Da Coroa Grande,BR,-8.8978,-35.1478,82.22,67,30,9.08,scattered clouds
452,Morros,BR,-9.4467,-46.3003,94.28,19,7,13.18,clear sky
453,Yenotayevka,RU,47.2456,47.0281,62.6,44,34,14.56,scattered clouds
454,Ballina,AU,-28.8667,153.5667,63.01,97,90,5.1,overcast clouds
455,Teguldet,RU,57.3064,88.1667,34.25,90,100,4.83,overcast clouds
456,Norman Wells,CA,65.282,-126.8329,33.84,100,20,4.61,few clouds
457,Presidencia Roque Saenz Pena,AR,-26.7852,-60.4388,59.41,88,100,14.12,overcast clouds
458,Fuyang,CN,32.9,115.8167,49.15,94,100,5.35,overcast clouds
459,Bonavista,CA,48.6499,-53.1147,54.97,70,100,8.19,overcast clouds
460,Sola,VU,-13.8833,167.55,80.62,74,100,12.08,light rain
461,Tubalan,PH,6.495,125.5661,81.36,77,34,7.56,scattered clouds
462,Christchurch,NZ,-43.5333,172.6333,47.91,63,40,9.22,scattered clouds
463,Ponta Delgada,PT,37.7333,-25.6667,76.5,83,75,13.8,broken clouds
464,Lorengau,PG,-2.0226,147.2712,81.97,80,100,9.26,overcast clouds
465,Srednekolymsk,RU,67.45,153.6833,22.77,86,100,20.51,overcast clouds
466,Yeppoon,AU,-23.1333,150.7333,69.58,80,11,13.94,few clouds
467,Tarko-Sale,RU,64.9225,77.785,35.46,75,100,9.69,overcast clouds
468,Rio Claro,BR,-22.4114,-47.5614,85.51,45,90,11.18,overcast clouds
469,Lasa,IT,46.6166,10.7002,74.28,52,46,3.09,scattered clouds
470,Aberdeen,GB,57.1437,-2.0981,63.19,53,40,20.71,scattered clouds
471,Rancho Veloz,CU,22.8806,-80.3917,79.75,73,50,8.21,light rain
472,Laguna,US,38.421,-121.4238,70.77,86,0,3.44,clear sky
473,Usinsk,RU,65.9939,57.5281,41.14,91,100,12.1,overcast clouds
474,Kamenka,RU,51.3223,42.7678,51.19,70,100,11.68,overcast clouds
475,Wellington,NZ,-41.2866,174.7756,49.66,77,75,25.32,broken clouds
476,Puerto Colombia,CO,10.9878,-74.9547,78.89,80,97,6.24,overcast clouds
477,Nanortalik,GL,60.1432,-45.2371,36.91,79,4,10.47,clear sky
478,Pangai,TO,-19.8,-174.35,77.07,83,65,10.56,light rain
479,Vilyuysk,RU,63.7553,121.6247,23.45,72,72,10.87,broken clouds
480,Mazamari,PE,-11.3258,-74.5308,73.85,86,100,0.96,overcast clouds
481,Rizhao,CN,35.4275,119.4553,56.39,55,100,3.2,overcast clouds
482,Jacmel,HT,18.2342,-72.5347,84.04,73,78,3.18,broken clouds
483,Casas Grandes,MX,30.3667,-107.95,57.97,78,6,3.22,clear sky
484,Vangaindrano,MG,-23.35,47.6,78.85,59,0,12.75,clear sky
485,Saint-Augustin,CA,51.226,-58.6502,54.39,74,12,13.09,few clouds
486,Raudeberg,NO,61.9875,5.1352,52.47,1,100,36.91,overcast clouds
487,Half Moon Bay,US,37.4636,-122.4286,61.39,94,100,9.22,mist
488,San Lawrenz,MT,36.0553,14.204,74.86,66,6,3.15,clear sky
489,Leningradskiy,RU,69.3833,178.4167,31.57,85,100,7.67,overcast clouds
490,Stornoway,GB,58.2093,-6.3865,55.36,76,40,23.02,scattered clouds
491,Coxim,BR,-18.5067,-54.76,88.9,47,100,8.12,overcast clouds
492,Ambilobe,MG,-13.2,49.05,87.55,39,42,9.15,scattered clouds
493,Saint Marys,US,30.7305,-81.5465,70.02,83,0,5.75,clear sky
494,Ilulissat,GL,69.2167,-51.1,28.42,80,75,2.3,broken clouds
495,Padang,ID,-0.9492,100.3543,75.25,95,100,7.11,overcast clouds
496,Martapura,ID,-3.4167,114.85,78.89,89,99,2.3,overcast clouds
497,Porteirinha,BR,-15.7433,-43.0283,89.94,30,99,10.11,overcast clouds
498,Trincomalee,LK,8.5711,81.2335,85.05,62,100,11.01,overcast clouds
499,Streator,US,41.1209,-88.8354,55.56,96,9,5.5,clear sky
500,Liku,ID,-0.7275,119.8922,75.87,95,100,1.48,overcast clouds
501,Adrar,MR,20.5022,-10.0711,99.23,8,6,11.32,clear sky
502,Xiangfan,CN,32.0422,112.1448,50.07,91,100,3.38,overcast clouds
503,Henties Bay,NA,-22.116,14.2845,60.08,76,2,15.43,clear sky
504,Moron,AR,-34.6534,-58.6198,62.35,81,100,4.85,light rain
505,Ipswich,GB,52.0592,1.1555,66.31,56,15,5.01,few clouds
506,Khanpur,PK,28.6453,70.6567,91.69,18,0,6.6,clear sky
507,Nizwa,OM,22.9333,57.5333,96.33,12,8,7.05,clear sky
508,Souillac,MU,-20.5167,57.5167,71.98,73,40,12.66,scattered clouds
509,Constitucion,CL,-35.3333,-72.4167,55.18,63,76,2.44,broken clouds
510,Inuvik,CA,68.3499,-133.7218,34.66,93,100,10.36,fog
511,Kavaratti,IN,10.5669,72.642,81.84,74,100,17.67,light rain
512,Tromso,NO,69.6496,18.957,46.42,76,75,21.85,light intensity shower rain
513,Glendive,US,47.1053,-104.7125,40.62,91,100,9.22,overcast clouds
514,Pasighat,IN,28.0667,95.3333,73.81,97,97,2.71,overcast clouds
515,Nerchinskiy Zavod,RU,51.3088,119.61,26.62,53,0,1.9,clear sky
516,Buraydah,SA,26.326,43.975,97.25,6,0,10.33,clear sky
517,Beeville,US,28.4008,-97.7483,73.29,94,0,4.61,clear sky
518,Porto Novo,BJ,6.4965,2.6036,85.82,69,82,10.16,light rain
519,Amahai,ID,-3.3333,128.9167,79.54,85,98,2.21,overcast clouds
520,Olafsvik,IS,64.8945,-23.7142,42.48,68,100,13.18,overcast clouds
521,Kefalos,GR,36.7453,26.9589,79.02,41,20,16.11,few clouds
522,Zolotonosha,UA,49.6689,32.0377,66.18,47,69,10.74,broken clouds
523,Zhanaozen,KZ,43.3,52.8,74.98,8,29,3.22,scattered clouds
524,Kurchum,KZ,48.5722,83.6542,53.29,55,99,10.2,overcast clouds
525,Zherdevka,RU,51.8486,41.4606,51.24,79,100,7.9,overcast clouds
526,Honiara,SB,-9.4333,159.95,78.08,86,85,3.76,overcast clouds
527,Morro Bay,US,35.3658,-120.8499,63.12,27,23,1.57,few clouds
528,Barranca,PE,-10.75,-77.7667,60.46,78,94,5.06,overcast clouds
529,Sao Geraldo Do Araguaia,BR,-6.4006,-48.555,93.24,36,12,7.18,few clouds
530,Mount Pleasant,US,32.7941,-79.8626,70.0,86,0,1.01,clear sky
531,Vao,NC,-22.6667,167.4833,71.78,61,100,16.89,overcast clouds
532,Mainit,PH,9.535,125.5231,80.55,79,100,4.47,overcast clouds
533,Mae Sai,TH,20.4335,99.8762,74.62,88,21,1.05,few clouds
534,Benemerito De Las Americas,MX,16.5167,-90.6439,70.34,99,100,1.3,overcast clouds
535,Dois Vizinhos,BR,-25.7336,-53.0572,63.97,99,100,5.88,moderate rain
536,Kaeo,NZ,-35.1,173.7833,43.32,88,6,4.27,clear sky
537,San Quintin,MX,30.4833,-115.95,66.43,90,54,7.0,broken clouds
538,Srandakan,ID,-7.9386,110.2506,77.11,90,100,7.31,light rain
539,Zaysan,KZ,47.4667,84.8667,51.96,53,90,7.52,overcast clouds
540,Cavalcante,BR,-13.7975,-47.4583,90.28,27,4,11.34,clear sky
541,Keelung,TW,25.1283,121.7419,79.57,89,96,11.07,overcast clouds
542,Batagay-Alyta,RU,67.8006,130.4114,7.65,84,100,5.97,overcast clouds
543,Escarcega,MX,18.6089,-90.7454,77.32,67,48,1.54,scattered clouds
544,Santo Anastacio,BR,-21.8383,-51.6103,80.96,47,100,13.67,overcast clouds
545,Nago,JP,26.5881,127.9761,77.45,79,13,7.18,few clouds
546,Pavino,RU,59.1139,46.1414,46.4,87,82,4.23,broken clouds
547,Vredendal,ZA,-31.6683,18.5012,67.06,51,97,18.7,overcast clouds
548,Flagstaff,US,35.1981,-111.6513,50.59,89,0,3.44,clear sky
549,Devrek,TR,41.2192,31.9558,68.85,68,30,7.34,scattered clouds
550,Basco,PH,20.4487,121.9702,82.74,77,13,17.02,few clouds
551,Gudibanda,IN,13.6694,77.6983,69.75,89,100,4.38,moderate rain
552,Bindi,SL,9.9167,-11.45,86.56,59,37,0.85,scattered clouds
553,Baykit,RU,61.67,96.37,30.83,97,99,1.77,overcast clouds
554,Galle,LK,6.0367,80.217,78.53,85,71,12.37,light rain
555,Lola,GN,7.8,-8.5333,85.08,58,80,0.22,light rain
556,Korla,CN,41.7597,86.1469,59.76,30,2,5.61,clear sky
557,Coahuayana,MX,18.7333,-103.6833,76.57,84,93,2.82,overcast clouds
558,Luganville,VU,-15.5333,167.1667,77.85,86,100,7.31,overcast clouds
559,Tura,IN,25.5198,90.2201,72.75,97,19,3.76,few clouds
560,Bosaso,SO,11.2842,49.1816,87.78,79,40,11.5,scattered clouds
561,San Jeronimo,PE,-11.9472,-75.2829,57.87,38,100,1.48,overcast clouds
562,Namatanai,PG,-3.6667,152.4333,80.85,75,84,12.35,broken clouds
563,Mascote,BR,-15.5631,-39.3025,81.3,64,100,3.18,overcast clouds
564,Bezhanitsy,RU,56.9767,29.8907,57.63,74,66,13.73,broken clouds
565,Taoudenni,ML,22.6783,-3.9836,109.78,8,2,7.34,clear sky
566,Dubbo,AU,-32.25,148.6167,59.13,88,100,9.22,overcast clouds
567,Conde,BR,-7.2597,-34.9075,83.66,70,75,5.75,broken clouds
568,Sadovoye,RU,47.7764,44.5089,59.77,48,65,12.03,broken clouds
569,Great Yarmouth,GB,52.6083,1.7305,66.25,54,13,18.99,few clouds
570,Port Keats,AU,-14.25,129.55,82.18,77,8,4.27,clear sky
571,Mareeba,AU,-17.0,145.4333,72.45,85,89,3.96,overcast clouds
572,Nome,US,64.5011,-165.4064,44.67,77,100,20.71,overcast clouds
573,Carauari,BR,-4.8828,-66.8958,93.67,44,71,3.13,broken clouds
574,Ust-Maya,RU,60.4167,134.5333,23.2,94,95,2.19,overcast clouds
575,Dakar,SN,14.6937,-17.4441,88.68,78,16,9.46,few clouds
576,Morondava,MG,-20.2833,44.2833,78.87,76,0,15.82,clear sky
577,Severomuysk,RU,56.1481,113.4267,12.4,91,100,4.16,overcast clouds
578,Bismil,TR,37.8486,40.6658,95.11,15,0,11.39,clear sky
579,Margate,GB,51.3813,1.3862,65.7,52,21,7.0,few clouds
580,Kaseda,JP,31.4167,130.3167,71.46,72,89,6.67,overcast clouds
581,Cicero Dantas,BR,-10.6,-38.3833,89.98,33,34,11.56,scattered clouds
582,Mahajanga,MG,-15.7167,46.3167,87.82,42,0,11.5,clear sky
583,Abu Samrah,SY,35.3029,37.1841,86.14,18,0,5.79,clear sky
584,Shirgaon,IN,19.7,72.7,80.8,78,100,6.73,overcast clouds
585,Chongwe,ZM,-15.3292,28.682,91.33,11,1,10.25,clear sky
586,Maloy,NO,61.9353,5.1136,53.33,1,100,35.9,overcast clouds
587,Bol,TD,13.4586,14.7147,82.53,71,75,12.86,broken clouds
588,Mocuba,MZ,-16.8392,36.9856,95.59,24,0,13.78,clear sky
589,Port Hawkesbury,CA,45.6169,-61.3485,58.78,99,100,9.22,mist
590,Koslan,RU,63.4564,48.8989,43.77,97,100,5.19,overcast clouds
591,Ippy,CF,6.2679,21.2247,74.86,83,100,0.85,overcast clouds
592,Hornepayne,CA,49.2138,-84.7705,35.73,96,100,13.38,light rain
593,Sudak,UA,44.85,34.9667,63.68,48,31,0.85,scattered clouds
594,Husavik,IS,66.0449,-17.3389,37.11,98,100,12.77,overcast clouds
595,Trelew,AR,-43.249,-65.3051,59.27,29,0,26.46,clear sky
596,Wegorzewo,PL,54.2157,21.7372,61.02,60,1,18.01,clear sky
597,Carutapera,BR,-1.195,-46.02,85.19,64,99,11.34,overcast clouds
598,Obidos,BR,-1.9175,-55.5181,94.86,36,80,7.2,broken clouds
599,Sinegorye,RU,62.0788,150.477,17.08,95,100,4.59,light snow
600,Athabasca,CA,54.7169,-113.2854,32.41,88,10,5.93,clear sky
601,Kayan,MM,16.9056,96.5631,82.54,79,43,4.9,scattered clouds
602,Surt,LY,31.2089,16.5887,75.87,64,33,16.15,scattered clouds
603,Mmathubudukwane,BW,-24.6,26.4333,98.73,8,0,9.44,clear sky
604,Tulun,RU,54.5611,100.5792,29.25,90,100,2.26,overcast clouds
605,Machinga,MW,-15.1685,35.3,92.84,13,0,6.78,clear sky
606,Skwierzyna,PL,52.5991,15.5065,67.48,41,1,12.46,clear sky
607,Turayf,SA,31.6725,38.6637,95.25,17,20,4.61,few clouds
608,Beian,NO,63.6559,9.5683,51.01,87,40,23.02,scattered clouds
609,Puerto Carreno,CO,6.189,-67.4859,78.78,89,75,3.44,broken clouds
610,Kudahuvadhoo,MV,2.6708,72.8944,81.88,77,60,21.0,broken clouds
611,Egvekinot,RU,66.3167,-179.1667,27.14,76,100,37.76,overcast clouds
612,Zhigansk,RU,66.7697,123.3711,21.45,87,88,20.09,overcast clouds
613,Sion,CH,46.2291,7.3594,76.21,51,0,10.36,clear sky
614,Verkh-Usugli,RU,52.7,115.1667,24.37,56,17,2.93,few clouds
615,Sivas,TR,39.7916,37.0019,61.43,58,20,18.41,few clouds
616,Campoverde,PE,-8.4753,-74.8058,82.09,55,90,2.8,overcast clouds
617,Tateyama,JP,34.9833,139.8667,58.1,85,100,17.05,overcast clouds
618,San Jose,US,37.3394,-121.895,62.2,90,0,0.0,clear sky
619,Lupiro,TZ,-8.3833,36.6667,92.03,23,13,6.24,few clouds
620,Svetlogorsk,BY,52.6333,29.7333,59.94,69,12,11.43,few clouds
621,Rome,US,34.257,-85.1647,59.47,87,0,0.0,clear sky
622,Puerto Montt,CL,-41.4698,-72.9447,49.03,81,75,3.44,broken clouds
623,Natitingou,BJ,10.3042,1.3796,87.24,54,33,5.68,light rain
624,Ust-Kuyga,RU,70.0167,135.6,15.89,97,91,5.73,light snow
625,Rosa Zarate,EC,0.3333,-79.4667,74.12,81,100,0.69,overcast clouds
626,Iskateley,RU,67.6803,53.1512,42.35,93,100,11.34,overcast clouds
627,Shelburne,CA,44.0787,-80.2041,56.75,70,100,9.17,overcast clouds
628,Haukipudas,FI,65.1765,25.3523,51.85,81,2,18.66,clear sky
629,Nuevo Progreso,MX,23.1667,-97.95,73.47,80,97,4.59,overcast clouds
630,Tadine,NC,-21.55,167.8833,70.92,73,100,16.42,overcast clouds
631,Koulikoro,ML,14.0,-7.75,96.26,31,24,9.73,few clouds
632,Bainbridge,US,47.6262,-122.5212,56.84,92,100,0.0,mist
633,Pergamino,AR,-33.89,-60.5736,62.19,74,100,8.01,light rain
634,Sarahan,IN,31.5167,77.8,56.34,88,10,0.47,clear sky
635,Gravdal,NO,68.1214,13.5031,49.89,71,75,16.11,light intensity shower rain
636,Elizabeth City,US,36.2946,-76.2511,66.22,86,40,8.05,scattered clouds
637,Kyzyl-Suu,KG,42.3414,78.0056,48.88,57,57,3.36,broken clouds
638,La Ciotat,FR,43.1748,5.6045,79.61,79,40,8.66,scattered clouds
639,Watsa,CD,3.0372,29.5355,80.53,62,69,4.32,broken clouds
640,Acajutla,SV,13.5928,-89.8275,81.21,66,99,3.62,overcast clouds
641,Yumen,CN,40.2833,97.2,51.48,33,0,11.12,clear sky
642,Plettenberg Bay,ZA,-34.0527,23.3716,62.91,61,100,6.42,overcast clouds
643,Asfi,MA,32.2994,-9.2372,74.64,70,11,14.63,few clouds
644,Veraval,IN,20.9,70.3667,81.91,77,31,14.36,scattered clouds
645,Mendi,PG,-6.1761,143.6513,56.73,98,100,1.39,moderate rain
646,Wanlaweyn,SO,2.6185,44.8938,86.56,48,76,23.98,broken clouds
647,Alasehir,TR,38.3508,28.5172,78.66,29,61,9.66,broken clouds
648,Formosa,AR,-26.1775,-58.1781,66.18,94,100,11.5,drizzle
649,Santiago De Cuba,CU,20.0247,-75.8219,82.51,74,20,9.22,few clouds
650,Tessalit,ML,20.1986,1.0114,103.75,9,17,12.19,few clouds
651,Shitanjing,CN,39.2342,106.3439,49.35,31,0,3.31,clear sky
652,Mabaruma,GY,8.2,-59.7833,87.8,59,45,5.59,scattered clouds
653,Tual,ID,-5.6667,132.75,83.35,78,100,16.89,overcast clouds
654,Sheffield,GB,53.383,-1.4659,65.01,72,79,5.01,broken clouds
655,Aklavik,CA,68.2191,-135.0107,30.02,91,100,17.07,overcast clouds
656,Gilbues,BR,-9.8317,-45.3439,95.76,20,10,13.69,clear sky
657,Salina,US,38.8403,-97.6114,50.13,87,0,0.0,mist
658,Buchanan,LR,5.8808,-10.0467,81.63,73,78,8.9,light rain
659,Chulym,RU,55.0997,80.9572,42.49,89,84,3.62,broken clouds
660,Isangel,VU,-19.55,169.2667,73.81,88,100,12.28,light rain
661,Lavrentiya,RU,65.5833,-171.0,38.5,72,7,29.21,clear sky
662,Sorland,NO,67.667,12.6934,48.06,81,100,16.11,light intensity shower rain
663,Vasai,IN,19.47,72.8,82.49,78,100,4.83,overcast clouds
664,Arman,RU,59.7,150.1667,22.59,69,45,7.36,scattered clouds
665,Waipawa,NZ,-41.4122,175.5153,40.19,92,100,17.09,overcast clouds
666,Biloela,AU,-24.4167,150.5,65.43,82,41,7.02,scattered clouds
